[{"ZCTA":"93450","city":"San Ardo","lat":36.056422,"long":-120.823759,"pvar":0.8293,"norma":0.7852,"invy":0.7998,"ninvy":0.8207,"invm":0.3478,"ninvm":0.3676,"pricey":0.5844,"npricey":0.6264,"pricem":0.0591,"npricem":0.036},{"ZCTA":"93451","city":"Parkfield","lat":35.900374,"long":-120.592895,"pvar":1.0,"norma":1.0,"invy":0.4586,"ninvy":0.4604,"invm":0.1438,"ninvm":0.1483,"pricey":0.469,"npricey":0.4924,"pricem":0.9284,"npricem":0.927},{"ZCTA":"93901","city":"Salinas","lat":36.638507,"long":-121.623953,"pvar":0.2377,"norma":0.0408,"invy":0.0418,"ninvy":0.0201,"invm":0.0211,"ninvm":0.0164,"pricey":0.1927,"npricey":0.1714,"pricem":0.0298,"npricem":0.006},{"ZCTA":"93905","city":"Salinas","lat":36.683205,"long":-121.607001,"pvar":0.2503,"norma":0.0565,"invy":0.0894,"ninvy":0.0704,"invm":0.9359,"ninvm":1.0,"pricey":0.7742,"npricey":0.847,"pricem":0.024,"npricem":0.0},{"ZCTA":"93906","city":"Salinas","lat":36.722571,"long":-121.632295,"pvar":0.2316,"norma":0.033,"invy":0.2878,"ninvy":0.2799,"invm":0.1567,"ninvm":0.1622,"pricey":0.3732,"npricey":0.3811,"pricem":0.993,"npricem":0.9932},{"ZCTA":"93907","city":"Salinas","lat":36.769557,"long":-121.667757,"pvar":0.2054,"norma":0.0,"invy":0.2993,"ninvy":0.2921,"invm":0.1241,"ninvm":0.1271,"pricey":0.4158,"npricey":0.4306,"pricem":0.246,"npricem":0.2276},{"ZCTA":"93908","city":"Salinas","lat":36.634241,"long":-121.606865,"pvar":0.2504,"norma":0.0567,"invy":0.1202,"ninvy":0.1029,"invm":0.8874,"ninvm":0.9479,"pricey":0.6679,"npricey":0.7235,"pricem":0.6204,"npricem":0.6112},{"ZCTA":"93920","city":"Big Sur","lat":36.109518,"long":-121.561618,"pvar":0.77,"norma":0.7106,"invy":0.6591,"ninvy":0.6721,"invm":0.0157,"ninvm":0.0106,"pricey":0.353,"npricey":0.3577,"pricem":0.5007,"npricem":0.4886},{"ZCTA":"93921","city":"Carmel","lat":36.553461,"long":-121.924105,"pvar":0.88,"norma":0.849,"invy":0.1114,"ninvy":0.0936,"invm":0.8711,"ninvm":0.9303,"pricey":0.3464,"npricey":0.35,"pricem":0.9693,"npricem":0.9689},{"ZCTA":"93923","city":"Carmel","lat":36.456947,"long":-121.845756,"pvar":1.0,"norma":1.0,"invy":0.9695,"ninvy":1.0,"invm":0.7903,"ninvm":0.8435,"pricey":0.0696,"npricey":0.0284,"pricem":0.8852,"npricem":0.8827},{"ZCTA":"93924","city":"Carmel Valley","lat":36.398906,"long":-121.640654,"pvar":0.67,"norma":0.5847,"invy":0.8897,"ninvy":0.9157,"invm":0.5937,"ninvm":0.6321,"pricey":0.115,"npricey":0.0812,"pricem":0.7382,"npricem":0.7321},{"ZCTA":"93925","city":"Chualar","lat":36.60058,"long":-121.431264,"pvar":0.3802,"norma":0.22,"invy":0.8916,"ninvy":0.9177,"invm":0.1593,"ninvm":0.165,"pricey":0.0451,"npricey":0.0,"pricem":0.7158,"npricem":0.7091},{"ZCTA":"93926","city":"Gonzales","lat":36.52921,"long":-121.407653,"pvar":0.3977,"norma":0.242,"invy":0.4638,"ninvy":0.4658,"invm":0.2476,"ninvm":0.26,"pricey":0.1733,"npricey":0.1488,"pricem":0.2867,"npricem":0.2692},{"ZCTA":"93927","city":"Greenfield","lat":36.233577,"long":-121.377162,"pvar":0.4202,"norma":0.2704,"invy":0.635,"ninvy":0.6467,"invm":0.0211,"ninvm":0.0164,"pricey":0.6552,"npricey":0.7088,"pricem":0.8734,"npricem":0.8706},{"ZCTA":"93928","city":"Jolon","lat":36.032404,"long":-121.239528,"pvar":0.5219,"norma":0.3984,"invy":0.6473,"ninvy":0.6597,"invm":0.3024,"ninvm":0.3189,"pricey":0.2922,"npricey":0.2871,"pricem":0.8471,"npricem":0.8437},{"ZCTA":"93930","city":"King City","lat":36.21475,"long":-121.030973,"pvar":0.6761,"norma":0.5924,"invy":0.6002,"ninvy":0.6099,"invm":0.257,"ninvm":0.2701,"pricey":0.9059,"npricey":1.0,"pricem":0.9776,"npricem":0.9774},{"ZCTA":"93932","city":"Lockwood","lat":35.99156,"long":-121.062328,"pvar":0.6529,"norma":0.5633,"invy":0.3086,"ninvy":0.3019,"invm":0.541,"ninvm":0.5754,"pricey":0.8321,"npricey":0.9143,"pricem":0.9997,"npricem":1.0},{"ZCTA":"93933","city":"Marina","lat":36.687141,"long":-121.787744,"pvar":0.99,"norma":0.9874,"invy":0.0228,"ninvy":0.0,"invm":0.7228,"ninvm":0.7708,"pricey":0.5239,"npricey":0.5562,"pricem":0.1254,"npricem":0.104},{"ZCTA":"93940","city":"Monterey","lat":36.580191,"long":-121.84432,"pvar":0.43,"norma":0.2827,"invy":0.1607,"ninvy":0.1457,"invm":0.9307,"ninvm":0.9944,"pricey":0.6757,"npricey":0.7326,"pricem":0.5399,"npricem":0.5287},{"ZCTA":"93943","city":"Monterey","lat":36.597004,"long":-121.874136,"pvar":0.67,"norma":0.5847,"invy":0.5947,"ninvy":0.604,"invm":0.8774,"ninvm":0.9371,"pricey":0.8921,"npricey":0.9839,"pricem":0.8034,"npricem":0.7989},{"ZCTA":"93950","city":"Pacific Grove","lat":36.620696,"long":-121.925358,"pvar":0.83,"norma":0.7861,"invy":0.8077,"ninvy":0.8291,"invm":0.6315,"ninvm":0.6727,"pricey":0.5143,"npricey":0.545,"pricem":0.8565,"npricem":0.8533},{"ZCTA":"93953","city":"Pebble Beach","lat":36.584868,"long":-121.945528,"pvar":1.0,"norma":1.0,"invy":0.101,"ninvy":0.0827,"invm":0.6444,"ninvm":0.6866,"pricey":0.7909,"npricey":0.8664,"pricem":0.4206,"npricem":0.4065},{"ZCTA":"93954","city":"San Lucas","lat":36.133125,"long":-120.94206,"pvar":0.7419,"norma":0.6752,"invy":0.3382,"ninvy":0.3331,"invm":0.6355,"ninvm":0.677,"pricey":0.6191,"npricey":0.6669,"pricem":0.3405,"npricem":0.3244},{"ZCTA":"93955","city":"Seaside","lat":36.621707,"long":-121.793527,"pvar":0.22,"norma":0.0184,"invy":0.4968,"ninvy":0.5007,"invm":0.8185,"ninvm":0.8738,"pricey":0.2243,"npricey":0.2081,"pricem":0.8689,"npricem":0.866},{"ZCTA":"93960","city":"Soledad","lat":36.398302,"long":-121.341096,"pvar":0.4469,"norma":0.3039,"invy":0.904,"ninvy":0.9308,"invm":0.3491,"ninvm":0.3691,"pricey":0.7591,"npricey":0.8294,"pricem":0.3169,"npricem":0.3002},{"ZCTA":"93962","city":"Spreckels","lat":36.624716,"long":-121.646487,"pvar":0.2211,"norma":0.0198,"invy":0.6288,"ninvy":0.6401,"invm":0.6609,"ninvm":0.7044,"pricey":0.8091,"npricey":0.8876,"pricem":0.3094,"npricem":0.2925},{"ZCTA":"95004","city":"Aromas","lat":36.874097,"long":-121.633016,"pvar":0.44,"norma":0.2953,"invy":0.8516,"ninvy":0.8755,"invm":0.7376,"ninvm":0.7868,"pricey":0.3118,"npricey":0.3098,"pricem":0.317,"npricem":0.3004},{"ZCTA":"95012","city":"Castroville","lat":36.776664,"long":-121.753988,"pvar":0.34,"norma":0.1694,"invy":0.1901,"ninvy":0.1767,"invm":0.0058,"ninvm":0.0,"pricey":0.5175,"npricey":0.5488,"pricem":0.328,"npricem":0.3116},{"ZCTA":"95039","city":"Moss Landing","lat":36.826576,"long":-121.775439,"pvar":0.45,"norma":0.3079,"invy":0.476,"ninvy":0.4787,"invm":0.4344,"ninvm":0.4608,"pricey":0.7167,"npricey":0.7802,"pricem":0.8516,"npricem":0.8483},{"ZCTA":"95076","city":"Watsonville","lat":36.938717,"long":-121.749467,"pvar":0.57,"norma":0.4589,"invy":0.4991,"ninvy":0.5031,"invm":0.7582,"ninvm":0.8089,"pricey":0.8242,"npricey":0.9051,"pricem":0.5878,"npricem":0.5779}]