[{"ZCTA":"93450","city":"San Ardo","lat":36.056422,"long":-120.823759,"pvar":0.8293,"norma":0.8293},{"ZCTA":"93451","city":"Parkfield","lat":35.900374,"long":-120.592895,"pvar":1.0,"norma":1.0},{"ZCTA":"93901","city":"Salinas","lat":36.638507,"long":-121.623953,"pvar":0.2377,"norma":0.2377},{"ZCTA":"93905","city":"Salinas","lat":36.683205,"long":-121.607001,"pvar":0.2503,"norma":0.2503},{"ZCTA":"93906","city":"Salinas","lat":36.722571,"long":-121.632295,"pvar":0.2316,"norma":0.2316},{"ZCTA":"93907","city":"Salinas","lat":36.769557,"long":-121.667757,"pvar":0.2054,"norma":0.2054},{"ZCTA":"93908","city":"Salinas","lat":36.634241,"long":-121.606865,"pvar":0.2504,"norma":0.2504},{"ZCTA":"93920","city":"Big Sur","lat":36.109518,"long":-121.561618,"pvar":0.2838,"norma":0.2838},{"ZCTA":"93921","city":"Carmel","lat":36.553461,"long":-121.924105,"pvar":0.0158,"norma":0.0158},{"ZCTA":"93923","city":"Carmel","lat":36.456947,"long":-121.845756,"pvar":0.0738,"norma":0.0738},{"ZCTA":"93924","city":"Carmel Valley","lat":36.398906,"long":-121.640654,"pvar":0.2254,"norma":0.2254},{"ZCTA":"93925","city":"Chualar","lat":36.60058,"long":-121.431264,"pvar":0.3802,"norma":0.3802},{"ZCTA":"93926","city":"Gonzales","lat":36.52921,"long":-121.407653,"pvar":0.3977,"norma":0.3977},{"ZCTA":"93927","city":"Greenfield","lat":36.233577,"long":-121.377162,"pvar":0.4202,"norma":0.4202},{"ZCTA":"93928","city":"Jolon","lat":36.032404,"long":-121.239528,"pvar":0.5219,"norma":0.5219},{"ZCTA":"93930","city":"King City","lat":36.21475,"long":-121.030973,"pvar":0.6761,"norma":0.6761},{"ZCTA":"93932","city":"Lockwood","lat":35.99156,"long":-121.062328,"pvar":0.6529,"norma":0.6529},{"ZCTA":"93933","city":"Marina","lat":36.687141,"long":-121.787744,"pvar":0.1166,"norma":0.1166},{"ZCTA":"93940","city":"Monterey","lat":36.580191,"long":-121.84432,"pvar":0.0748,"norma":0.0748},{"ZCTA":"93943","city":"Monterey","lat":36.597004,"long":-121.874136,"pvar":0.0528,"norma":0.0528},{"ZCTA":"93950","city":"Pacific Grove","lat":36.620696,"long":-121.925358,"pvar":0.0149,"norma":0.0149},{"ZCTA":"93953","city":"Pebble Beach","lat":36.584868,"long":-121.945528,"pvar":0.0,"norma":0.0},{"ZCTA":"93954","city":"San Lucas","lat":36.133125,"long":-120.94206,"pvar":0.7419,"norma":0.7419},{"ZCTA":"93955","city":"Seaside","lat":36.621707,"long":-121.793527,"pvar":0.1124,"norma":0.1124},{"ZCTA":"93960","city":"Soledad","lat":36.398302,"long":-121.341096,"pvar":0.4469,"norma":0.4469},{"ZCTA":"93962","city":"Spreckels","lat":36.624716,"long":-121.646487,"pvar":0.2211,"norma":0.2211},{"ZCTA":"95004","city":"Aromas","lat":36.874097,"long":-121.633016,"pvar":0.231,"norma":0.231},{"ZCTA":"95012","city":"Castroville","lat":36.776664,"long":-121.753988,"pvar":0.1416,"norma":0.1416},{"ZCTA":"95039","city":"Moss Landing","lat":36.826576,"long":-121.775439,"pvar":0.1257,"norma":0.1257},{"ZCTA":"95076","city":"Watsonville","lat":36.938717,"long":-121.749467,"pvar":0.1449,"norma":0.1449}]